[{"node_id":"?","name":"Щит связи для 1 рубежа","address":"г. Саранск, ул. Володарского, 2","description":"Жилое здание","latitude":"54.18172860161452","longitude":"45.18929221287113","node_distance":"?","cost":"?"},{"node_id":"?","name":"Щит связи для 2 рубежа","address":"г. Саранск, ул. Володарского, 7","description":"Жилое здание","latitude":"54.18310835863414","longitude":"45.19016661301013","node_distance":"?","cost":"?"},{"node_id":"?","name":"Щит связи для 3, 7 и 79 рубежей","address":"г. Саранск, ул. Б.Хмельницкого, 36","description":"Здание Театра оперы и балета","latitude":"54.18619902444596","longitude":"45.18041502957374","node_distance":"?","cost":"?"},{"node_id":"?","name":"Щит связи для 4 рубежа","address":"г. Саранск, ул. Большевистская, 2","description":"Жилое здание","latitude":"54.17996332632784","longitude":"45.18047847404821","node_distance":"?","cost":"?"},{"node_id":"?","name":"Щит связи для 5 рубежа","address":"г. Саранск, ул. Большевистская, 25","description":"Жилое здание","latitude":"54.1832241383519","longitude":"45.18251963510754","node_distance":"?","cost":"?"},{"node_id":"?","name":"Щит связи для 6 рубежа","address":"г. Саранск, ул. Васенко, 2","description":"Жилое здание","latitude":"54.19400098239066","longitude":"45.18812813415752","node_distance":"?","cost":"?"},{"node_id":"?","name":"Щит связи для 6 рубежа","address":"г. Саранск, ул. Васенко, 1","description":"Жилое здание","latitude":"54.1949053475724","longitude":"45.18813618078453","node_distance":"?","cost":"?"},{"node_id":"?","name":"Щит связи для 8 рубежа","address":"г. Саранск, ул. Ботевградская, 21","description":"Здание Поликлиники №3","latitude":"54.18252876101648","longitude":"45.17197587146956","node_distance":"?","cost":"?"},{"node_id":"?","name":"Щит связи для 9 и 3 - БИО рубежей","address":"г. Саранск, Аэропорт Терминал 1","description":"Здание Аэропорта, Терминал 1","latitude":"54.14765044505082","longitude":"45.22173353090454","node_distance":"?","cost":"?"},{"node_id":"?","name":"Щит связи для 10 рубежа","address":"г. Саранск, ул. Веселовского, 59а","description":"Жилое здание","latitude":"54.22184473598796","longitude":"45.12306310787341","node_distance":"?","cost":"?"},{"node_id":"?","name":"Щит связи для 11 рубежа","address":"г. Саранск, ул. Ботевградская, 65","description":"Жилое здание","latitude":"54.18715075367567","longitude":"45.17246064756707","node_distance":"?","cost":"?"},{"node_id":"?","name":"Щит связи для 12 рубежа","address":"г. Саранск, ул. Б.Хмельницкого, 35а","description":"Здание Саранск Арена","latitude":"54.18834156370082","longitude":"45.18475857589934","node_distance":"?","cost":"?"},{"node_id":"?","name":"Щит связи для 13 рубежа","address":"г. Саранск, ул. Б.Хмельницкого, 35а","description":"Здание Саранск Арена","latitude":"54.18794515546501","longitude":"45.18388685797031","node_distance":"?","cost":"?"},{"node_id":"?","name":"Щит связи для 14 рубежа","address":"г. Саранск, ул. Б.Хмельницкого, 26","description":"Здание Пушкинской библиотеки","latitude":"54.18579315611167","longitude":"45.18436965559289","node_distance":"?","cost":"?"},{"node_id":"?","name":"Щит связи для 15, 16 и 87 рубежей","address":"г. Саранск, ул. Б.Хмельницкого, 24","description":"Жилое здание","latitude":"54.18655297571613","longitude":"45.18614527796067","node_distance":"?","cost":"?"},{"node_id":"?","name":"Щит связи для 17 рубежа","address":"г. Саранск, ул. Б.Хмельницкого, 39","description":"Здание МГУ им. Огарева (ФЭТ)","latitude":"54.18712873029448","longitude":"45.17903742407107","node_distance":"?","cost":"?"},{"node_id":"?","name":"Щит связи для 18 рубежа","address":"г. Саранск, ул. Б.Хмельницкого, 40","description":"Жилое здание","latitude":"54.18650892831818","longitude":"45.17551836584341","node_distance":"?","cost":"?"},{"node_id":"?","name":"Щит связи для 19 и 123 рубежей","address":"г. Саранск, ул. Пролетерская, 21","description":"Здание Администрации Ленинского р-на","latitude":"54.18101997209536","longitude":"45.17724302623968","node_distance":"?","cost":"?"},{"node_id":"?","name":"Щит связи для 20 рубежа","address":"г. Саранск, ул. Дальняя, 3а","description":"Здание Станции переливания крови","latitude":"54.18865145199489","longitude":"45.15372005317882","node_distance":"?","cost":"?"},{"node_id":"?","name":"Щит связи для 21, 24 рубежей","address":"г. Саранск, ул. Коммунистическая, 34","description":"Здание ПАО \"Ростелеком\"","latitude":"54.18400760321498","longitude":"45.18481222007964","node_distance":"?","cost":"?"},{"node_id":"?","name":"Щит связи для 22 рубежа","address":"г. Саранск, ул. Коммунистическая, 59а","description":"Жилое здание","latitude":"54.18486499238458","longitude":"45.18155870054355","node_distance":"?","cost":"?"},{"node_id":"?","name":"Щит связи для 23 рубежа","address":"г. Саранск, ул. Московская, 14","description":"Здание Торгово-промышленной палаты","latitude":"54.1774955784574","longitude":"45.18673268173426","node_distance":"?","cost":"?"},{"node_id":"?","name":"Щит связи для 25 рубежа","address":"г. Саранск, ул. Рабочая, 13","description":"Жилое здание","latitude":"54.18201901951895","longitude":"45.19323972080302","node_distance":"?","cost":"?"},{"node_id":"?","name":"Щит связи для 26 рубежа","address":"г. Саранск, ул. Коммунистическая, 89","description":"Здание Мордовгражданпроект","latitude":"54.18557763502552","longitude":"45.16769436214596","node_distance":"?","cost":"?"},{"node_id":"?","name":"Щит связи для 27 рубежа","address":"г. Саранск, ул. Коммунистическая, 50","description":"Здание Минсельхоз","latitude":"54.18403434708342","longitude":"45.18077549550958","node_distance":"?","cost":"?"},{"node_id":"?","name":"Щит связи для 84, 28, 45 рубежей","address":"г. Саранск, ул. Льва Толстого, 8","description":"Жилое здание","latitude":"54.18300388372258","longitude":"45.18471566055351","node_distance":"?","cost":"?"},{"node_id":"?","name":"Щит связи для 52, 28 рубежей","address":"г. Саранск, ул. Льва Толстого, 2","description":"Здание Прокуратуры","latitude":"54.18157377764103","longitude":"45.1846083721929","node_distance":"?","cost":"?"},{"node_id":"?","name":"Щит связи для 29 рубежа","address":"г. Саранск, ул. Коммунистическая, 52","description":"Жилое здание","latitude":"54.18406423754034","longitude":"45.178881855944","node_distance":"?","cost":"?"},{"node_id":"?","name":"Щит связи для 30 рубежа","address":"г. Саранск, ул. Коммунистическая, 33а","description":"Здание Минфина","latitude":"54.18498298011135","longitude":"45.18692580078151","node_distance":"?","cost":"?"},{"node_id":"?","name":"Щит связи для 31 рубежа","address":"г. Саранск, ул. Ст.Разина, 33","description":"Жилое здание","latitude":"54.18949773326589","longitude":"45.16693261478445","node_distance":"?","cost":"?"},{"node_id":"?","name":"Щит связи для 32 рубежа","address":"г. Саранск, ул. Коммунистическая, 10","description":"Жилое здание","latitude":"54.18371970432747","longitude":"45.19096520755789","node_distance":"?","cost":"?"},{"node_id":"?","name":"Щит связи для 33 рубежа","address":"г. Саранск, ул. Коммунистическая, 16","description":"Жилое здание","latitude":"54.18367408093412","longitude":"45.18869605873125","node_distance":"?","cost":"?"},{"node_id":"?","name":"Щит связи для 34 рубежа","address":"г. Саранск, пр. Ленина, 1","description":"Жилое здание","latitude":"54.18193091505221","longitude":"45.18777606103907","node_distance":"?","cost":"?"},{"node_id":"?","name":"Щит связи для 35, 36 рубежей","address":"г. Саранск, пр. Ленина, 13","description":"Жилое здание","latitude":"54.18634824731412","longitude":"45.1881992743257","node_distance":"?","cost":"?"},{"node_id":"?","name":"Щит связи для 37 рубежа","address":"г. Саранск, пр. Ленина, 27а","description":"Жилое здание","latitude":"54.19193401277145","longitude":"45.18894224622267","node_distance":"?","cost":"?"},{"node_id":"?","name":"Щит связи для 37 рубежа","address":"г. Саранск, пр. Ленина, 31","description":"Жилое здание","latitude":"54.19105946811064","longitude":"45.18880277135382","node_distance":"?","cost":"?"},{"node_id":"?","name":"Щит связи для 38 рубежа","address":"г. Саранск, пр. Ленина, 30а","description":"Жилое здание","latitude":"54.19210860479798","longitude":"45.18774329879255","node_distance":"?","cost":"?"},{"node_id":"?","name":"Щит связи для 39, 2 - БИО и 2 - БИО-2 рубежей","address":"г. Саранск, ул. Вокзальная, 7","description":"Здание ж/д вокзала","latitude":"54.19583148709398","longitude":"45.19069641091723","node_distance":"?","cost":"?"},{"node_id":"?","name":"Щит связи для 40 рубежа","address":"г. Саранск, ул. Лесная, 2а","description":"Жилое здание","latitude":"54.19118372990609","longitude":"45.14833091952734","node_distance":"?","cost":"?"},{"node_id":"?","name":"Щит связи для 41 рубежа","address":"г. Саранск, пр. Ленина, 12","description":"Жилое здание","latitude":"54.18615677056933","longitude":"45.18721796508444","node_distance":"?","cost":"?"},{"node_id":"?","name":"Щит связи для 42 рубежа","address":"г. Саранск, пр. 60 лет Октября, 137","description":"Жилое здание","latitude":"54.2232956664219","longitude":"45.11773534055221","node_distance":"?","cost":"?"},{"node_id":"?","name":"Щит связи для 43, 85 рубежей","address":"г. Саранск, ул. Полежаева, 57","description":"Здание центрального рынка","latitude":"54.18984007990468","longitude":"45.18359698291403","node_distance":"?","cost":"?"},{"node_id":"?","name":"Щит связи для 44 рубежа","address":"г. Саранск, ул. Полежаева, 44","description":"Здание Экономического факультета","latitude":"54.18943346073242","longitude":"45.1801503443298","node_distance":"?","cost":"?"},{"node_id":"?","name":"Щит связи для 46 рубежа и 1 - БИО","address":"г. Саранск, ул. Полежаева, 184","description":"Здание Автовокзала","latitude":"54.19530819923276","longitude":"45.14042414660974","node_distance":"?","cost":"?"},{"node_id":"?","name":"Щит связи для 47 рубежа","address":"г. Саранск, ул. Полежаева, 113","description":"Здание Детской Республиканской Больницы","latitude":"54.19026556904667","longitude":"45.17545647855235","node_distance":"?","cost":"?"},{"node_id":"?","name":"Щит связи для 48 рубежа","address":"г. Саранск, ул. Полежаева, 171","description":"Здание Миграционного содействия","latitude":"54.19038826066722","longitude":"45.16385056014539","node_distance":"?","cost":"?"},{"node_id":"?","name":"Щит связи для 49 рубежа","address":"г. Саранск, ул. Полежаева, 159","description":"Жилое здание","latitude":"54.19028444470399","longitude":"45.16593463654944","node_distance":"?","cost":"?"},{"node_id":"?","name":"Щит связи для 50 рубежа","address":"г. Саранск, ул. Веселовского, 43/1","description":"Жилое здание","latitude":"54.22535926353244","longitude":"45.12645251985051","node_distance":"?","cost":"?"},{"node_id":"?","name":"Щит связи для 51 и 62 рубежей","address":"г. Саранск, ул. Пролетарская, 83","description":"Жилое здание","latitude":"54.19230094042542","longitude":"45.17826206918132","node_distance":"?","cost":"?"},{"node_id":"?","name":"Щит связи для 53 рубежа","address":"г. Саранск, ул. Пролетарская, 118","description":"Здание торгового центра","latitude":"54.19336083630598","longitude":"45.17720259662035","node_distance":"?","cost":"?"},{"node_id":"?","name":"Щит связи для 54 рубежа","address":"г. Саранск, ул. Пролетарская, 63","description":"Здание Факультета иностранных языков","latitude":"54.188015942014","longitude":"45.17765320773438","node_distance":"?","cost":"?"},{"node_id":"?","name":"Щит связи для 56 рубежа","address":"г. Саранск, ул. Пролетарская, 39","description":"Здание РДК","latitude":"54.18539986846979","longitude":"45.17781950469394","node_distance":"?","cost":"?"},{"node_id":"?","name":"Щит связи для 57 рубежа","address":"г. Саранск, ул. Пролетарская, 92а","description":"Жилое здание","latitude":"54.18870650758539","longitude":"45.17675734992386","node_distance":"?","cost":"?"},{"node_id":"?","name":"Щит связи для 59 рубежа","address":"г. Саранск, ул. Пролетарская, 44а","description":"Жилое здание","latitude":"54.18538728315464","longitude":"45.17640866275178","node_distance":"?","cost":"?"},{"node_id":"?","name":"Щит связи для 60 рубежа","address":"г. Саранск, ул. Пролетарская, 85","description":"Жилое здание","latitude":"54.19350239209106","longitude":"45.17864830727763","node_distance":"?","cost":"?"},{"node_id":"?","name":"Щит связи для 61 рубежа","address":"г. Саранск, ул. Федосеенко, 6","description":"Здание Российской Правовой Академии","latitude":"54.19320040503355","longitude":"45.18461354012791","node_distance":"?","cost":"?"},{"node_id":"?","name":"Щит связи для 63 рубежа","address":"г. Саранск, ул. Пролетарская, 79","description":"Жилое здание","latitude":"54.19013321970194","longitude":"45.17786242003721","node_distance":"?","cost":"?"},{"node_id":"?","name":"Щит связи для 64 рубежа","address":"г. Саранск, ул. Пролетарская, 87","description":"Жилое здание","latitude":"54.19423375918015","longitude":"45.17868854041577","node_distance":"?","cost":"?"},{"node_id":"?","name":"Щит связи для 65 и 66 рубежей","address":"г. Саранск, ул. Ст. Разина, 17","description":"Жилое здание","latitude":"54.186809391895","longitude":"45.16641206975545","node_distance":"?","cost":"?"},{"node_id":"?","name":"Щит связи для 67 и 69 рубежей","address":"г. Саранск, ул. Ст. Разина, 19","description":"Здание Детской поликлиники №1","latitude":"54.18734424250038","longitude":"45.16659714217659","node_distance":"?","cost":"?"},{"node_id":"?","name":"Щит связи для 68 рубежа","address":"г. Саранск, ул. Володарского, 37","description":"Здание Детского сада №112","latitude":"54.18531649160425","longitude":"45.19147731299925","node_distance":"?","cost":"?"},{"node_id":"?","name":"Щит связи для 70 рубежа","address":"г. Саранск, ул. Советская, 50-1","description":"Жилое здание","latitude":"54.1810152521028","longitude":"45.17949588532957","node_distance":"?","cost":"?"},{"node_id":"?","name":"Щит связи для 71 и 72 рубежей","address":"г. Саранск, ул. Советская, 47а","description":"Здание Дворца бракосочетания","latitude":"54.1812197835154","longitude":"45.18349237676172","node_distance":"?","cost":"?"},{"node_id":"?","name":"Щит связи для 73 рубежа","address":"г. Саранск, ул. Т.Бибиной, 34","description":"Жилое здание","latitude":"54.19941114847246","longitude":"45.25257266993972","node_distance":"?","cost":"?"},{"node_id":"?","name":"Щит связи для 74 рубежа","address":"г. Саранск, ул. Советская, 26","description":"Здание Госсобрания","latitude":"54.17909732686166","longitude":"45.18547721143227","node_distance":"?","cost":"?"},{"node_id":"?","name":"Щит связи для 74 рубежа","address":"г. Саранск, ул. Советская, 33","description":"Жилое здание","latitude":"54.1799375117383","longitude":"45.18682368035769","node_distance":"?","cost":"?"},{"node_id":"?","name":"Щит связи для 74 рубежа","address":"г. Саранск, ул. Советская, 30","description":"Здание Администрации г.о. Саранск","latitude":"54.18069901280312","longitude":"45.18544502492401","node_distance":"?","cost":"?"},{"node_id":"?","name":"Щит связи для 74 рубежа","address":"г. Саранск, ул. Московская, 2","description":"Здание Епархиального управления","latitude":"54.1811773037907","longitude":"45.18782682652924","node_distance":"?","cost":"?"},{"node_id":"?","name":"Щит связи для 74 рубежа","address":"г. Саранск, ул. Московская, 5","description":"Здание Худ. школы №1 им. Рябова","latitude":"54.18044570511351","longitude":"45.18889434571712","node_distance":"?","cost":"?"},{"node_id":"?","name":"Щит связи для 75 рубежа","address":"г. Саранск, ул. Советская, 27","description":"Здание Драматического театра","latitude":"54.18084533264461","longitude":"45.19119568105177","node_distance":"?","cost":"?"},{"node_id":"?","name":"Щит связи для 75, 76 и 126 рубежей","address":"г. Саранск, ул. Советская, 22","description":"Здание Дома Печати","latitude":"54.18013575506119","longitude":"45.19344337220627","node_distance":"?","cost":"?"},{"node_id":"?","name":"Щит связи для 77 рубежа","address":"г. Саранск, ул. Московская, 31/1","description":"Здание Архива","latitude":"54.17165449063958","longitude":"45.18654741282739","node_distance":"?","cost":"?"},{"node_id":"?","name":"Щит связи для 78 и 81 рубежей","address":"г. Саранск, ул. Большевистская, 60а","description":"Здание Белый Медведь","latitude":"54.18632959230148","longitude":"45.18187232251416","node_distance":"?","cost":"?"},{"node_id":"?","name":"Щит связи для 80 рубежа","address":"г. Саранск, ул. Б.Хмельницкого, 35а","description":"Здание Саранск Арена","latitude":"54.18838246207506","longitude":"45.1831946515583","node_distance":"?","cost":"?"},{"node_id":"?","name":"Щит связи для 86 рубежа","address":"г. Саранск, ул. А. Лусс, 6","description":"Жилое здание","latitude":"54.22779442908742","longitude":"45.13710357184596","node_distance":"?","cost":"?"},{"node_id":"?","name":"Щит связи для 89 рубежа","address":"г. Саранск, ул. Льва Толстого, 55","description":"Жилое здание","latitude":"54.18916211735056","longitude":"45.18589831824391","node_distance":"?","cost":"?"},{"node_id":"?","name":"Щит связи для 90 рубежа","address":"г. Саранск, ул.Есенина, 14","description":"Здание Магнит","latitude":"54.2258456804031","longitude":"45.12069381709244","node_distance":"?","cost":"?"},{"node_id":"?","name":"Щит связи для 91 рубежа","address":"г. Саранск, ул. Ульянова, 26а","description":"Здание Медицинского института","latitude":"54.16873149617113","longitude":"45.13206638331492","node_distance":"?","cost":"?"},{"node_id":"?","name":"Щит связи для 92 рубежа","address":"г. Саранск, пр. Ленина, 47","description":"Жилое здание","latitude":"54.19520361009781","longitude":"45.1891774946981","node_distance":"?","cost":"?"},{"node_id":"?","name":"Щит связи для 92 рубежа","address":"г. Саранск, пр. Ленина, 40","description":"Жилое здание","latitude":"54.19572576985144","longitude":"45.18812070434623","node_distance":"?","cost":"?"},{"node_id":"?","name":"Щит связи для 92 рубежа","address":"г. Саранск, пр. Ленина, 43","description":"Жилое здание","latitude":"54.19661279713246","longitude":"45.18916140144402","node_distance":"?","cost":"?"},{"node_id":"?","name":"Щит связи для 93 рубежа","address":"г. Саранск, ул. Ульянова, 22а","description":"Здание Радо","latitude":"54.16348886080441","longitude":"45.14822820966756","node_distance":"?","cost":"?"},{"node_id":"?","name":"Щит связи для 94 рубежа","address":"г. Саранск, ул. Транспортная, 17","description":"Здание Саранский кооперативный институт","latitude":"54.16004482102466","longitude":"45.14895777051883","node_distance":"?","cost":"?"},{"node_id":"?","name":"Щит связи для 95 рубежа","address":"г. Саранск, ул. Осипенко, 8","description":"Здание Саранский кооперативный институт","latitude":"54.15547645952702","longitude":"45.16632239168101","node_distance":"?","cost":"?"},{"node_id":"?","name":"Щит связи для 96 рубежа","address":"г. Саранск, ул. Р.Люксембург, 2","description":"Здание Российской правовой академии","latitude":"54.17642819400781","longitude":"45.1285810286321","node_distance":"?","cost":"?"},{"node_id":"?","name":"Щит связи для 97 рубежа","address":"г. Саранск, ул. Студенческая, 13а","description":"МГПИ им. Евсевьева (Биологический корпус)","latitude":"54.16113724852335","longitude":"45.15626410787459","node_distance":"?","cost":"?"},{"node_id":"?","name":"Щит связи для 98 рубежа","address":"г. Саранск, ул. Студенческая, 13б","description":"МГПИ им. Евсевьева (Филологический корпус)","latitude":"54.1612883600506","longitude":"45.15570889060827","node_distance":"?","cost":"?"},{"node_id":"?","name":"Щит связи для 99 рубежа","address":"г. Саранск, ул. Студенческая, 13","description":"МГПИ им. Евсевьева (Психологический корпус)","latitude":"54.16078150433022","longitude":"45.15536556785457","node_distance":"?","cost":"?"},{"node_id":"?","name":"Щит связи для 100 рубежа","address":"г. Саранск, ул. Студенческая, 17б","description":"МГПИ им. Евсевьева (Корпус доп. образования)","latitude":"54.16175743223506","longitude":"45.15714655464042","node_distance":"?","cost":"?"},{"node_id":"?","name":"Щит связи для 101 рубежа","address":"г. Саранск, ул. Студенческая, 11а","description":"МГПИ им. Евсевьева (Основной корпус)","latitude":"54.16042418297128","longitude":"45.15873710458624","node_distance":"?","cost":"?"},{"node_id":"?","name":"Щит связи для 104 рубежа","address":"г. Ардатов, ул. Полевая, 78а","description":"Здание Автовокзала","latitude":"54.84312128068755","longitude":"46.2430844718727","node_distance":"?","cost":"?"},{"node_id":"?","name":"Щит связи для 105 рубежа","address":"г. Краснослободск, пл. Комсомольская, 20","description":"Здание Автовокзала","latitude":"54.4267385714632","longitude":"43.80125771110349","node_distance":"?","cost":"?"},{"node_id":"?","name":"Щит связи для 106 рубежа","address":"г. Ковылкино, ул. Пролетарская, 15","description":"Здание Автовокзала","latitude":"54.03915728834605","longitude":"43.91178655944772","node_distance":"?","cost":"?"},{"node_id":"?","name":"Щит связи для 107 рубежа","address":"г. Темников, ул. Р. Люксембург, 97","description":"Здание Автовокзала","latitude":"54.62412068335782","longitude":"43.23117602191901","node_distance":"?","cost":"?"},{"node_id":"?","name":"Щит связи для 108 рубежа","address":"п. Зубово-Поляна, ул. Парковая, 2а","description":"Здание Автовокзала","latitude":"54.08091913088141","longitude":"42.83731776796308","node_distance":"?","cost":"?"},{"node_id":"?","name":"Щит связи для 109 и 4 - БИО рубежей","address":"г. Рузаевка, Привокзальная площадь, 1","description":"Здание Автовокзала","latitude":"54.05658963463343","longitude":"44.94864823105821","node_distance":"?","cost":"?"},{"node_id":"?","name":"Щит связи для 110, 5 - БИО и 5 - БИО-2 рубежей","address":"г. Рузаевка, Привокзальная площадь","description":"Здание Ж/д вокзала","latitude":"54.05568854420037","longitude":"44.94939656737397","node_distance":"?","cost":"?"},{"node_id":"?","name":"Щит связи для 111 рубежа","address":"г. Рузаевка, Привокзальная площадь, 5","description":"Здание Ночной клуб «Royal»","latitude":"54.05744494251237","longitude":"44.94854094269805","node_distance":"?","cost":"?"},{"node_id":"?","name":"Щит связи для 112 рубежа","address":"г. Саранск, ул. Косарева, 5а","description":"Здание Ночной клуб «RedClub»","latitude":"54.18956319195111","longitude":"45.23457707646406","node_distance":"?","cost":"?"},{"node_id":"?","name":"Щит связи для 112 рубежа","address":"г. Саранск, ул. Ярославская, 25","description":"Жилое здание","latitude":"54.18952229403223","longitude":"45.23516179802932","node_distance":"?","cost":"?"},{"node_id":"?","name":"Щит связи для 113 рубежа","address":"г. Саранск, Володарского, 80","description":"Жилое здание","latitude":"54.18961352756874","longitude":"45.18994780066475","node_distance":"?","cost":"?"},{"node_id":"?","name":"Щит связи для 114 рубежа","address":"г. Саранск, пр. Ленина 22","description":"Жилое здание","latitude":"54.18917151384708","longitude":"45.18766524079325","node_distance":"?","cost":"?"},{"node_id":"?","name":"Щит связи для 118 рубежа","address":"г. Саранск, ул. 2-я Промышленная, 7а","description":"Здание Ночной клуб «Альпы»","latitude":"54.23435658966152","longitude":"45.19212307217514","node_distance":"?","cost":"?"},{"node_id":"?","name":"Щит связи для 119 рубежа","address":"г. Саранск, ул. Строительная, 2/2","description":"Здание Ночной клуб «Шервуд»","latitude":"54.2044473324594","longitude":"45.17742724898266","node_distance":"?","cost":"?"},{"node_id":"?","name":"Щит связи для 120 рубежа","address":"г. Саранск, ул. Васенко, 3а","description":"Здание Мордовского гуманитарного института","latitude":"54.19569483562859","longitude":"45.18589223215148","node_distance":"?","cost":"?"},{"node_id":"?","name":"Щит связи для 116 рубежа","address":"п. Чамзинка, ул. К.Маркса","description":"Здание Автовокзала","latitude":"54.40330489470215","longitude":"45.78101003953959","node_distance":"?","cost":"?"},{"node_id":"?","name":"Щит связи для 117 рубежа","address":"г. Инсар, ул. Московская, 93 б","description":"Здание Автовокзала","latitude":"53.87066633819547","longitude":"44.36376030036949","node_distance":"?","cost":"?"},{"node_id":"?","name":"Щит связи для 121 рубежа","address":"г. Саранск, ул. Победы, 3 б","description":"Здание ЦОП","latitude":"54.20825770837155","longitude":"45.12889260837451","node_distance":"?","cost":"?"},{"node_id":"?","name":"Щит связи для 122 рубежа","address":"г.Саранск, ул.Республиканская, 103","description":"Гостиница «Адмирал»","latitude":"54.17366286600162","longitude":"45.17064921092661","node_distance":"?","cost":"?"},{"node_id":"?","name":"Щит связи для 125 рубежа","address":"г. Саранск, ул. А.Невского (между ул.Ворошилова и ул. Пожарского)","description":"Район общежитий №4 и №11","latitude":"54.16969206487433","longitude":"45.19138000440212","node_distance":"?","cost":"?"},{"node_id":"?","name":"Щит связи для 128 рубежа","address":"г. Саранск, Аэропорт","description":"Опора сотовой связи","latitude":"54.14881712278312","longitude":"45.22329131782463","node_distance":"?","cost":"?"},{"node_id":"?","name":"Щит связи для 124 рубежа","address":"г. Саранск, Аэропорт","description":"Вспомогательное здание","latitude":"54.13989946358599","longitude":"45.2177203697","node_distance":"?","cost":"?"},{"node_id":"?","name":"Щит связи для 3 - Био-2 рубежа","address":"г. Саранск, Аэропорт Терминал B","description":"Здание Терминал B","latitude":"54.13831809806943","longitude":"45.21710467310321","node_distance":"?","cost":"?"},{"node_id":"?","name":"Щит связи для 3 - Био-2 рубежа","address":"г. Саранск, Аэропорт Терминал А","description":"Здание Терминал A","latitude":"54.13856379019158","longitude":"45.2197010514296","node_distance":"?","cost":"?"}]