[{"node_id":"УC01","name":"Дом Республики","address":"г.Саранск, ул.Советская, 35","latitude":"54.181709910037200","longitude":"45.18660463943900"},{"node_id":"УC02","name":"Госсобрание","address":"г.Саранск, ул.Советская, 26","latitude":"54.18035842663410","longitude":"45.18872090235210"},{"node_id":"УC03","name":"Адм.города","address":"г.Саранск, ул.Советская, 30","latitude":"54.18059757480740","longitude":"45.18554516687850"},{"node_id":"УC04","name":"ФСО","address":"г.Саранск, ул.Толстого, 6а","latitude":"54.18214804408710","longitude":"45.18336975446630"},{"node_id":"УC05","name":"Дом правительства","address":"г.Саранск, ул.Коммунистическая, 33/2","latitude":"54.18494778964300","longitude":"45.18553443804270"},{"node_id":"УC09","name":"Мисельхоз","address":"г.Саранск, ул. Коммунистическая, 50","latitude":"54.18402275390270","longitude":"45.180459698586500"},{"node_id":"УC10","name":"МВД","address":"г.Саранск, ул. Коммунистическая, 75","latitude":"54.18504847257550","longitude":"45.17389365091810"},{"node_id":"УC11","name":"ГАИ","address":"г.Саранск, ул.Строительная, 6","latitude":"54.20446937361960","longitude":"45.167338332086300"},{"node_id":"УC12","name":"Минфин","address":"г.Саранск, ул.Коммунистическая, 33/1","latitude":"54.184920882388400","longitude":"45.18700428858270"},{"node_id":"УC13","name":"Дом печати","address":"г.Саранск, ул.Советская, 22","latitude":"54.18004375586960","longitude":"45.19348450556250"},{"node_id":"УC14","name":"Фонд развития села","address":"г.Саранск, ул.Московская, 1","latitude":"54.18014445076660","longitude":"45.18567391291120"},{"node_id":"УC15","name":"Архив","address":"г.Саранск, ул.Республиканская, 20","latitude":"54.17196848096000","longitude":"45.18644638910570"},{"node_id":"УC17","name":"Минсоцзащиты","address":"г.Саранск, ул.Титова, 133","latitude":"54.17290008243040","longitude":"45.159280976204400"},{"node_id":"УC18","name":"МЧС","address":"г.Саранск, ул.Расковой, 2","latitude":"54.176124409417600","longitude":"45.14857328473420"},{"node_id":"УC20","name":"РТПЦ","address":"г.Саранск, ул.Гончарова, 39","latitude":"54.186833816577200","longitude":"45.14702864542420"},{"node_id":"УC24","name":"ЦНТИ","address":"г.Саранск, ул.Невского, 64","latitude":"54.17008003578470","longitude":"45.15947409525340"},{"node_id":"УC28","name":"Технопарк","address":"г.Саранск, ул.Лодыгина, 3","latitude":"54.22302610301620","longitude":"45.15931316271350"},{"node_id":"УC29","name":"ЦОД","address":"г.Саранск, ул.Осипенко, 37","latitude":"54.165566300297400","longitude":"45.166243990807000"},{"node_id":"УC30","name":"Администрация Ленинского района го Саранск","address":"г.Саранск, ул. Пролетарская,22","latitude":"54.180934076181600","longitude":"45.177165788559700"}]