[{"id":"tl_01","name":"СВ01","type":"traffic_light","address":"пр. Ленина — ул. Полежаева","latitude":"54.189308","longitude":"45.188035","fiber":"0","last_inch":"3000","hardware":"46000","vl-100":"3970","vl-1000":"0"},{"id":"tl_02","name":"СВ02","type":"traffic_light","address":"пр. Ленина — ул. Б.Хмельницкого","latitude":"54.186642","longitude":"45.187774","fiber":"0","last_inch":"3000","hardware":"46000","vl-100":"3970","vl-1000":"0"},{"id":"tl_03","name":"СВ03","type":"traffic_light","address":"пр. Ленина — ул. Коммунистическая","latitude":"54.184155","longitude":"45.187496","fiber":"0","last_inch":"3000","hardware":"46000","vl-100":"3970","vl-1000":"0"},{"id":"tl_04","name":"СВ04","type":"traffic_light","address":"ул. Коммунистическая — ул. Рабочая","latitude":"54.184003","longitude":"45.193164","fiber":"0","last_inch":"3000","hardware":"46000","vl-100":"3970","vl-1000":"0"},{"id":"tl_05","name":"СВ05","type":"traffic_light","address":"ул. Коммунистическая — ул.Большевистская","latitude":"54.184377","longitude":"45.181603","fiber":"0","last_inch":"3000","hardware":"46000","vl-100":"3970","vl-1000":"0"},{"id":"tl_06","name":"СВ06","type":"traffic_light","address":"ул. Коммунистическая — ул. Пролетарская","latitude":"54.184688","longitude":"45.177102","fiber":"100000","last_inch":"3000","hardware":"46000","vl-100":"3970","vl-1000":"0"},{"id":"tl_07","name":"СВ07","type":"traffic_light","address":"ул. Коммунистическая — ул. Ботевградская","latitude":"54.184761","longitude":"45.171694","fiber":"0","last_inch":"3000","hardware":"46000","vl-100":"3970","vl-1000":"0"},{"id":"tl_08","name":"СВ08","type":"traffic_light","address":"ул. Полежаева — ул. Большевистская","latitude":"54.189482","longitude":"45.182645","fiber":"0","last_inch":"3000","hardware":"46000","vl-100":"3970","vl-1000":"0"},{"id":"tl_09","name":"СВ09","type":"traffic_light","address":"ул. Полежаева — ул. Пролетарская","latitude":"54.189635","longitude":"45.177147","fiber":"0","last_inch":"3000","hardware":"46000","vl-100":"3970","vl-1000":"0"},{"id":"tl_10","name":"СВ10","type":"traffic_light","address":"ул. Полежаева — ул. Ботевградская","latitude":"54.189819","longitude":"45.172233","fiber":"40000","last_inch":"3000","hardware":"46000","vl-100":"3970","vl-1000":"0"},{"id":"tl_11","name":"СВ11","type":"traffic_light","address":"ул. Полежаева — ул. Ст. Разина","latitude":"54.189993","longitude":"45.167337","fiber":"20000","last_inch":"3000","hardware":"46000","vl-100":"3970","vl-1000":"0"},{"id":"tl_12","name":"СВ12","type":"traffic_light","address":"ул. Полежаева — ул. Титова","latitude":"54.190172","longitude":"45.162028","fiber":"40000","last_inch":"3000","hardware":"46000","vl-100":"3970","vl-1000":"0"},{"id":"tl_13","name":"СВ13","type":"traffic_light","address":"ул. Полежаева — ул. Гагарина","latitude":"54.190683","longitude":"45.159414","fiber":"40000","last_inch":"3000","hardware":"46000","vl-100":"3970","vl-1000":"0"},{"id":"tl_14","name":"СВ14","type":"traffic_light","address":"ул. Полежаева — ул. Суворова","latitude":"54.191726","longitude":"45.154878","fiber":"75000","last_inch":"3000","hardware":"46000","vl-100":"3970","vl-1000":"0"},{"id":"tl_15","name":"СВ15","type":"traffic_light","address":"ул. Советская — ул. Ботевградская","latitude":"54.181863","longitude":"45.170958","fiber":"0","last_inch":"3000","hardware":"46000","vl-100":"3970","vl-1000":"0"},{"id":"tl_16","name":"СВ16","type":"traffic_light","address":"ул. Б.Хмельницкого — ул. Пролетарская","latitude":"54.186806","longitude":"45.177318","fiber":"0","last_inch":"3000","hardware":"46000","vl-100":"3970","vl-1000":"0"},{"id":"tl_17","name":"СВ17","type":"traffic_light","address":"ул. Б. Хмельницкого — ул. Рабочая","latitude":"54.186416","longitude":"45.194736","fiber":"112500","last_inch":"3000","hardware":"46000","vl-100":"3970","vl-1000":"0"},{"id":"tl_18","name":"СВ18","type":"traffic_light","address":"пр. Ленина - ж/д вокзал","latitude":"54.196269","longitude":"45.188693","fiber":"162500","last_inch":"3000","hardware":"46000","vl-100":"3970","vl-1000":"0"},{"id":"tl_19","name":"СВ19","type":"traffic_light","address":"ул. Васенко — ул. Большевистская","latitude":"54.194576","longitude":"45.183076","fiber":"75000","last_inch":"3000","hardware":"46000","vl-100":"3970","vl-1000":"0"},{"id":"tl_20","name":"СВ20","type":"traffic_light","address":"ул. Ботевградская — ул. Б.Хмельницкого","latitude":"54.186885","longitude":"45.171910","fiber":"62500","last_inch":"3000","hardware":"46000","vl-100":"3970","vl-1000":"0"},{"id":"tl_21","name":"СВ21","type":"traffic_light","address":"ул. Волгоградская — ул. Короленко","latitude":"54.186252","longitude":"45.214265","fiber":"0","last_inch":"3000","hardware":"46000","vl-100":"3970","vl-1000":"0"},{"id":"tl_22","name":"СВ22","type":"traffic_light","address":"ул. Васенко — ул. Пролетарская","latitude":"54.194771","longitude":"45.178351","fiber":"0","last_inch":"3000","hardware":"46000","vl-100":"3970","vl-1000":"0"},{"id":"tl_23","name":"СВ23","type":"traffic_light","address":"ул.Васенко — ул. Ботевградская","latitude":"54.194908","longitude":"45.172700","fiber":"112500","last_inch":"3000","hardware":"46000","vl-100":"3970","vl-1000":"0"},{"id":"tl_24","name":"СВ24","type":"traffic_light","address":"ул. Васенко — пр. Ленина","latitude":"54.194365","longitude":"45.188583","fiber":"0","last_inch":"3000","hardware":"46000","vl-100":"3970","vl-1000":"0"},{"id":"tl_25","name":"СВ25","type":"traffic_light","address":"ул. Волгоградская д.2","latitude":"54.182554","longitude":"45.203710","fiber":"87500","last_inch":"3000","hardware":"46000","vl-100":"3970","vl-1000":"0"},{"id":"tl_26","name":"СВ26","type":"traffic_light","address":"ул. Осипенко д.5","latitude":"54.169537","longitude":"45.167643","fiber":"125000","last_inch":"3000","hardware":"46000","vl-100":"3970","vl-1000":"0"},{"id":"tl_27","name":"СВ27","type":"traffic_light","address":"ул. Полежаева д. 170","latitude":"54.194055","longitude":"45.144502","fiber":"112500","last_inch":"3000","hardware":"46000","vl-100":"3970","vl-1000":"0"},{"id":"tl_28","name":"СВ28","type":"traffic_light","address":"ул. Рабочая - ул. Инсарская (эстакада)","latitude":"54.183776","longitude":"45.197952","fiber":"87500","last_inch":"3000","hardware":"46000","vl-100":"3970","vl-1000":"0"},{"id":"node29","name":"УС29","type":"node","address":"ЦОД \"Технопарк-Мордовия\" (Кроссировка силами Исполнителя, оптическая)","latitude":"54.165566300297400","longitude":"45.166243990807000","fiber":"0","last_inch":"0","hardware":"0","vl-100":"0","vl-1000":"29500"}]